$GNGGA,090714.20,5948.7670876,N,01739.2891831,E,4,12,0.49,18.549,M,24.261,M,0.2,0000*55
$GNGGA,090714.40,5948.7670874,N,01739.2891833,E,4,12,0.49,18.548,M,24.261,M,0.4,0000*54
$GNGGA,090714.60,5948.7670871,N,01739.2891825,E,4,12,0.49,18.545,M,24.261,M,0.6,0000*5B
$GNGGA,090714.80,5948.7670869,N,01739.2891833,E,4,12,0.49,18.545,M,24.261,M,0.8,0000*55
$GNGGA,090715.00,5948.7670872,N,01739.2891825,E,4,12,0.49,18.543,M,24.261,M,1.0,0000*5E
$GNGGA,090715.20,5948.7670864,N,01739.2891826,E,4,12,0.49,18.543,M,24.261,M,1.2,0000*5A
$GNGGA,090715.40,5948.7670864,N,01739.2891830,E,4,12,0.49,18.544,M,24.261,M,1.4,0000*5A
$GNGGA,090715.60,5948.7670863,N,01739.2891836,E,4,12,0.49,18.545,M,24.261,M,0.6,0000*5B
$GNGGA,090715.80,5948.7670864,N,01739.2891831,E,4,12,0.49,18.547,M,24.261,M,0.8,0000*59
$GNGGA,090716.00,5948.7670861,N,01739.2891830,E,4,12,0.49,18.547,M,24.261,M,1.0,0000*5F
$GNGGA,090716.20,5948.7670877,N,01739.2891825,E,4,12,0.49,18.548,M,24.261,M,0.2,0000*52
$GNGGA,090716.40,5948.7670870,N,01739.2891831,E,4,12,0.49,18.548,M,24.261,M,0.4,0000*50
$GNGGA,090716.60,5948.7670867,N,01739.2891821,E,4,12,0.49,18.548,M,24.261,M,0.6,0000*57
$GNGGA,090716.80,5948.7670871,N,01739.2891825,E,4,12,0.49,18.550,M,24.261,M,0.8,0000*5D
$GNGGA,090717.00,5948.7670875,N,01739.2891835,E,4,12,0.49,18.549,M,24.261,M,1.0,0000*50
$GNGGA,090717.20,5948.7670870,N,01739.2891839,E,4,12,0.49,18.550,M,24.261,M,1.2,0000*51
$GNGGA,090717.40,5948.7670870,N,01739.2891835,E,4,12,0.49,18.553,M,24.261,M,1.4,0000*5E
$GNGGA,090717.60,5948.7670879,N,01739.2891826,E,4,12,0.49,18.552,M,24.261,M,0.6,0000*55
$GNGGA,090717.80,5948.7670882,N,01739.2891824,E,4,12,0.49,18.552,M,24.261,M,0.8,0000*53
$GNGGA,090718.00,5948.7670878,N,01739.2891825,E,4,12,0.49,18.554,M,24.261,M,1.0,0000*5F
$GNGGA,090718.20,5948.7670878,N,01739.2891829,E,4,12,0.49,18.550,M,24.261,M,0.2,0000*56
$GNGGA,090718.40,5948.7670874,N,01739.2891832,E,4,12,0.49,18.550,M,24.261,M,0.4,0000*50
$GNGGA,090718.60,5948.7670872,N,01739.2891831,E,4,12,0.49,18.554,M,24.261,M,0.6,0000*51
$GNGGA,090718.80,5948.7670879,N,01739.2891832,E,4,12,0.49,18.555,M,24.261,M,0.8,0000*58
$GNGGA,090719.00,5948.7670874,N,01739.2891831,E,4,12,0.49,18.556,M,24.261,M,1.0,0000*55
$GNGGA,090719.20,5948.7670879,N,01739.2891829,E,4,12,0.49,18.550,M,24.261,M,0.2,0000*56
$GNGGA,090719.40,5948.7670877,N,01739.2891833,E,4,12,0.49,18.548,M,24.261,M,0.4,0000*5A
$GNGGA,090719.60,5948.7670879,N,01739.2891840,E,4,12,0.49,18.551,M,24.261,M,0.6,0000*58
$GNGGA,090719.80,5948.7670876,N,01739.2891826,E,4,12,0.49,18.553,M,24.261,M,0.8,0000*55
$GNGGA,090720.00,5948.7670877,N,01739.2891835,E,4,12,0.49,18.552,M,24.261,M,1.0,0000*5C
$GNGGA,090720.20,5948.7670879,N,01739.2891838,E,4,12,0.49,18.554,M,24.261,M,1.2,0000*59
$GNGGA,090720.40,5948.7670880,N,01739.2891842,E,4,12,0.49,18.548,M,24.261,M,0.4,0000*5E
$GNGGA,090720.60,5948.7670880,N,01739.2891839,E,4,12,0.49,18.546,M,24.261,M,0.6,0000*5C
$GNGGA,090720.80,5948.7670881,N,01739.2891835,E,4,12,0.49,18.548,M,24.261,M,0.8,0000*5F
$GNGGA,090721.00,5948.7670880,N,01739.2891846,E,4,12,0.49,18.547,M,24.261,M,1.0,0000*55
$GNGGA,090721.20,5948.7670878,N,01739.2891843,E,4,12,0.49,18.549,M,24.261,M,1.2,0000*59
$GNGGA,090721.40,5948.7670880,N,01739.2891824,E,4,12,0.49,18.547,M,24.261,M,0.4,0000*50
$GNGGA,090721.60,5948.7670881,N,01739.2891825,E,4,12,0.49,18.545,M,24.261,M,0.6,0000*52
$GNGGA,090721.80,5948.7670876,N,01739.2891825,E,4,12,0.49,18.544,M,24.261,M,0.8,0000*5B
$GNGGA,090722.00,5948.7670880,N,01739.2891824,E,4,12,0.49,18.544,M,24.261,M,1.0,0000*51
$GNGGA,090722.20,5948.7670883,N,01739.2891841,E,4,12,0.49,18.547,M,24.261,M,0.2,0000*53
$GNGGA,090722.40,5948.7670881,N,01739.2891844,E,4,12,0.49,18.546,M,24.261,M,0.4,0000*55
$GNGGA,090722.60,5948.7670884,N,01739.2891847,E,4,12,0.49,18.544,M,24.261,M,0.6,0000*51
$GNGGA,090722.80,5948.7670883,N,01739.2891845,E,4,12,0.49,18.543,M,24.261,M,0.8,0000*53
$GNGGA,090723.00,5948.7670882,N,01739.2891857,E,4,12,0.49,18.540,M,24.261,M,1.0,0000*52
$GNGGA,090723.20,5948.7670882,N,01739.2891840,E,4,12,0.49,18.548,M,24.261,M,0.2,0000*5D
$GNGGA,090723.40,5948.7670882,N,01739.2891845,E,4,12,0.49,18.546,M,24.261,M,0.4,0000*56
$GNGGA,090723.60,5948.7670880,N,01739.2891832,E,4,12,0.49,18.546,M,24.261,M,0.6,0000*54
$GNGGA,090723.80,5948.7670879,N,01739.2891836,E,4,12,0.49,18.545,M,24.261,M,0.8,0000*55
$GNGGA,090724.00,5948.7670887,N,01739.2891848,E,4,12,0.49,18.544,M,24.261,M,1.0,0000*5A
$GNGGA,090724.20,5948.7670887,N,01739.2891845,E,4,12,0.49,18.548,M,24.261,M,0.2,0000*5A
$GNGGA,090724.40,5948.7670878,N,01739.2891835,E,4,12,0.49,18.548,M,24.261,M,0.4,0000*5D
$GNGGA,090724.60,5948.7670882,N,01739.2891825,E,4,12,0.49,18.550,M,24.261,M,0.6,0000*50
$GNGGA,090724.80,5948.7670881,N,01739.2891835,E,4,12,0.49,18.550,M,24.261,M,0.8,0000*52
$GNGGA,090725.00,5948.7670883,N,01739.2891835,E,4,12,0.49,18.548,M,24.261,M,1.0,0000*59
$GNGGA,090725.20,5948.7670884,N,01739.2891822,E,4,12,0.49,18.552,M,24.261,M,0.2,0000*52
$GNGGA,090725.40,5948.7670880,N,01739.2891833,E,4,12,0.49,18.551,M,24.261,M,0.4,0000*55
$GNGGA,090725.60,5948.7670878,N,01739.2891826,E,4,12,0.49,18.553,M,24.261,M,0.6,0000*54
$GNGGA,090725.80,5948.7670881,N,01739.2891822,E,4,12,0.49,18.554,M,24.261,M,0.8,0000*51
$GNGGA,090726.00,5948.7670882,N,01739.2891829,E,4,12,0.49,18.555,M,24.261,M,1.0,0000*5A
$GNGGA,090726.20,5948.7670876,N,01739.2891833,E,4,12,0.49,18.554,M,24.261,M,1.2,0000*5B
$GNGGA,090726.40,5948.7670885,N,01739.2891839,E,4,12,0.49,18.551,M,24.261,M,0.4,0000*59
$GNGGA,090726.60,5948.7670882,N,01739.2891829,E,4,12,0.49,18.551,M,24.261,M,0.6,0000*5F
$GNGGA,090726.80,5948.7670880,N,01739.2891841,E,4,12,0.49,18.553,M,24.261,M,0.8,0000*51
$GNGGA,090727.00,5948.7670878,N,01739.2891840,E,4,12,0.49,18.553,M,24.261,M,1.0,0000*57
$GNGGA,090727.20,5948.7670873,N,01739.2891811,E,4,12,0.49,18.551,M,24.261,M,0.2,0000*5B
$GNGGA,090727.40,5948.7670874,N,01739.2891819,E,4,12,0.49,18.552,M,24.261,M,0.4,0000*57
$GNGGA,090727.60,5948.7670869,N,01739.2891819,E,4,12,0.49,18.551,M,24.261,M,0.6,0000*58
$GNGGA,090727.80,5948.7670873,N,01739.2891826,E,4,12,0.49,18.552,M,24.261,M,0.8,0000*5C
$GNGGA,090728.00,5948.7670870,N,01739.2891826,E,4,12,0.49,18.550,M,24.261,M,1.0,0000*53
$GNGGA,090728.20,5948.7670865,N,01739.2891818,E,4,12,0.49,18.551,M,24.261,M,1.2,0000*5B
$GNGGA,090728.40,5948.7670878,N,01739.2891820,E,4,12,0.49,18.551,M,24.261,M,0.4,0000*5D
$GNGGA,090728.60,5948.7670878,N,01739.2891829,E,4,12,0.49,18.550,M,24.261,M,0.6,0000*55
$GNGGA,090728.80,5948.7670879,N,01739.2891829,E,4,12,0.49,18.551,M,24.261,M,0.8,0000*55
$GNGGA,090729.00,5948.7670877,N,01739.2891825,E,4,12,0.49,18.551,M,24.261,M,1.0,0000*57
$GNGGA,090729.20,5948.7670876,N,01739.2891818,E,4,12,0.49,18.551,M,24.261,M,0.2,0000*59
$GNGGA,090729.40,5948.7670882,N,01739.2891812,E,4,12,0.49,18.552,M,24.261,M,0.4,0000*5B
$GNGGA,090729.60,5948.7670877,N,01739.2891824,E,4,12,0.49,18.551,M,24.261,M,0.6,0000*57
$GNGGA,090729.80,5948.7670879,N,01739.2891823,E,4,12,0.49,18.552,M,24.261,M,0.8,0000*5D
$GNGGA,090730.00,5948.7670879,N,01739.2891835,E,4,12,0.49,18.553,M,24.261,M,1.0,0000*52
$GNGGA,090730.20,5948.7670882,N,01739.2891819,E,4,12,0.49,18.550,M,24.261,M,0.2,0000*5A
$GNGGA,090730.40,5948.7670880,N,01739.2891832,E,4,12,0.49,18.548,M,24.261,M,0.4,0000*58
$GNGGA,090730.60,5948.7670882,N,01739.2891830,E,4,12,0.49,18.549,M,24.261,M,0.6,0000*59
$GNGGA,090730.80,5948.7670878,N,01739.2891829,E,4,12,0.49,18.548,M,24.261,M,0.8,0000*55
$GNGGA,090731.00,5948.7670878,N,01739.2891828,E,4,12,0.49,18.550,M,24.261,M,1.0,0000*5D
$GNGGA,090731.20,5948.7670879,N,01739.2891834,E,4,12,0.49,18.548,M,24.261,M,1.2,0000*58
$GNGGA,090731.40,5948.7670879,N,01739.2891838,E,4,12,0.49,18.548,M,24.261,M,1.4,0000*54
$GNGGA,090731.60,5948.7670872,N,01739.2891831,E,4,12,0.49,18.546,M,24.261,M,0.6,0000*59
$GNGGA,090731.80,5948.7670870,N,01739.2891832,E,4,12,0.49,18.545,M,24.261,M,0.8,0000*5B
$GNGGA,090732.00,5948.7670866,N,01739.2891834,E,4,12,0.49,18.543,M,24.261,M,1.0,0000*5E
$GNGGA,090732.20,5948.7670885,N,01739.2891819,E,4,12,0.49,18.547,M,24.261,M,0.2,0000*59
$GNGGA,090732.40,5948.7670885,N,01739.2891824,E,4,12,0.49,18.545,M,24.261,M,0.4,0000*55
$GNGGA,090732.60,5948.7670880,N,01739.2891816,E,4,12,0.49,18.541,M,24.261,M,0.6,0000*55
$GNGGA,090732.80,5948.7670876,N,01739.2891831,E,4,12,0.49,18.542,M,24.261,M,0.8,0000*5A
$GNGGA,090733.00,5948.7670877,N,01739.2891822,E,4,12,0.49,18.540,M,24.261,M,1.0,0000*5B
$GNGGA,090733.20,5948.7670871,N,01739.2891819,E,4,12,0.49,18.539,M,24.261,M,1.2,0000*5B
$GNGGA,090733.40,5948.7670881,N,01739.2891835,E,4,12,0.49,18.542,M,24.261,M,0.4,0000*57
$GNGGA,090733.60,5948.7670879,N,01739.2891829,E,4,12,0.49,18.541,M,24.261,M,0.6,0000*5E
$GNGGA,090733.80,5948.7670877,N,01739.2891836,E,4,12,0.49,18.538,M,24.261,M,0.8,0000*50
$GNGGA,090734.00,5948.7670873,N,01739.2891826,E,4,12,0.49,18.537,M,24.261,M,1.0,0000*5C
$GNGGA,090734.20,5948.7670872,N,01739.2891822,E,4,12,0.49,18.545,M,24.261,M,0.2,0000*5D
$GNGGA,090734.40,5948.7670872,N,01739.2891816,E,4,12,0.49,18.543,M,24.261,M,0.4,0000*5C
$GNGGA,090734.60,5948.7670864,N,01739.2891812,E,4,12,0.49,18.546,M,24.261,M,0.6,0000*5A
$GNGGA,090734.80,5948.7670866,N,01739.2891824,E,4,12,0.49,18.547,M,24.261,M,0.8,0000*5C
$GNGGA,090735.00,5948.7670868,N,01739.2891819,E,4,12,0.49,18.548,M,24.261,M,1.0,0000*53
$GNGGA,090735.20,5948.7670867,N,01739.2891811,E,4,12,0.49,18.547,M,24.261,M,1.2,0000*5B
$GNGGA,090735.40,5948.7670869,N,01739.2891799,E,4,12,0.49,18.546,M,24.261,M,0.4,0000*5A
$GNGGA,090735.60,5948.7670869,N,01739.2891789,E,4,12,0.49,18.546,M,24.261,M,0.6,0000*5B
$GNGGA,090735.80,5948.7670868,N,01739.2891812,E,4,12,0.49,18.548,M,24.261,M,0.8,0000*59
$GNGGA,090736.00,5948.7670871,N,01739.2891811,E,4,12,0.49,18.548,M,24.261,M,1.0,0000*50
$GNGGA,090736.20,5948.7670869,N,01739.2891808,E,4,12,0.49,18.547,M,24.261,M,0.2,0000*5F
$GNGGA,090736.40,5948.7670869,N,01739.2891812,E,4,12,0.49,18.548,M,24.261,M,0.4,0000*5B
$GNGGA,090736.60,5948.7670872,N,01739.2891819,E,4,12,0.49,18.549,M,24.261,M,0.6,0000*5B
$GNGGA,090736.80,5948.7670872,N,01739.2891819,E,4,12,0.49,18.551,M,24.261,M,0.8,0000*52
$GNGGA,090737.00,5948.7670872,N,01739.2891824,E,4,12,0.49,18.551,M,24.261,M,1.0,0000*5C
$GNGGA,090737.20,5948.7670880,N,01739.2891830,E,4,12,0.49,18.552,M,24.261,M,1.2,0000*57
$GNGGA,090737.40,5948.7670870,N,01739.2891823,E,4,12,0.49,18.551,M,24.261,M,0.4,0000*58
$GNGGA,090737.60,5948.7670865,N,01739.2891826,E,4,12,0.49,18.550,M,24.261,M,0.6,0000*58
$GNGGA,090737.80,5948.7670864,N,01739.2891824,E,4,12,0.49,18.549,M,24.261,M,0.8,0000*53
$GNGGA,090738.00,5948.7670865,N,01739.2891835,E,4,12,0.49,18.549,M,24.261,M,1.0,0000*5C
$GNGGA,090738.20,5948.7670869,N,01739.2891819,E,4,12,0.49,18.547,M,24.261,M,0.2,0000*51
$GNGGA,090738.40,5948.7670863,N,01739.2891811,E,4,12,0.49,18.544,M,24.261,M,0.4,0000*50
$GNGGA,090738.60,5948.7670872,N,01739.2891826,E,4,12,0.49,18.544,M,24.261,M,0.6,0000*54
$GNGGA,090738.80,5948.7670873,N,01739.2891830,E,4,12,0.49,18.542,M,24.261,M,0.8,0000*54
$GNGGA,090739.00,5948.7670862,N,01739.2891816,E,4,12,0.49,18.545,M,24.261,M,1.0,0000*57
$GNGGA,090739.20,5948.7670875,N,01739.2891821,E,4,12,0.49,18.543,M,24.261,M,0.2,0000*52
$GNGGA,090739.40,5948.7670865,N,01739.2891825,E,4,12,0.49,18.541,M,24.261,M,0.4,0000*55
$GNGGA,090739.60,5948.7670868,N,01739.2891829,E,4,12,0.49,18.541,M,24.261,M,0.6,0000*54
$GNGGA,090739.80,5948.7670866,N,01739.2891837,E,4,12,0.49,18.542,M,24.261,M,0.8,0000*56
$GNGGA,090740.00,5948.7670863,N,01739.2891826,E,4,12,0.49,18.542,M,24.261,M,1.0,0000*5C
$GNGGA,090740.20,5948.7670863,N,01739.2891837,E,4,12,0.49,18.540,M,24.261,M,1.2,0000*5E
$GNGGA,090740.40,5948.7670881,N,01739.2891842,E,4,12,0.49,18.544,M,24.261,M,0.4,0000*55
$GNGGA,090740.60,5948.7670878,N,01739.2891847,E,4,12,0.49,18.544,M,24.261,M,0.6,0000*56
$GNGGA,090740.80,5948.7670877,N,01739.2891847,E,4,12,0.49,18.545,M,24.261,M,0.8,0000*58
$GNGGA,090741.00,5948.7670876,N,01739.2891845,E,4,12,0.49,18.543,M,24.261,M,1.0,0000*5D
$GNGGA,090741.20,5948.7670885,N,01739.2891838,E,4,12,0.49,18.546,M,24.261,M,0.2,0000*5F
$GNGGA,090741.40,5948.7670885,N,01739.2891841,E,4,12,0.49,18.544,M,24.261,M,0.4,0000*53
$GNGGA,090741.60,5948.7670887,N,01739.2891850,E,4,12,0.49,18.545,M,24.261,M,0.6,0000*50
$GNGGA,090741.80,5948.7670888,N,01739.2891846,E,4,12,0.49,18.546,M,24.261,M,0.8,0000*5B
$GNGGA,090742.00,5948.7670888,N,01739.2891850,E,4,12,0.49,18.547,M,24.261,M,1.0,0000*5F
$GNGGA,090742.20,5948.7670885,N,01739.2891853,E,4,12,0.49,18.547,M,24.261,M,1.2,0000*51
$GNGGA,090742.40,5948.7670870,N,01739.2891822,E,4,12,0.49,18.544,M,24.261,M,0.4,0000*5F
$GNGGA,090742.60,5948.7670872,N,01739.2891829,E,4,12,0.49,18.543,M,24.261,M,0.6,0000*51
$GNGGA,090742.80,5948.7670877,N,01739.2891827,E,4,12,0.49,18.544,M,24.261,M,0.8,0000*5D
$GNGGA,090743.00,5948.7670874,N,01739.2891848,E,4,12,0.49,18.542,M,24.261,M,1.0,0000*51
$GNGGA,090743.20,5948.7670881,N,01739.2891831,E,4,12,0.49,18.543,M,24.261,M,0.2,0000*55
$GNGGA,090743.40,5948.7670882,N,01739.2891834,E,4,12,0.49,18.544,M,24.261,M,0.4,0000*54
$GNGGA,090743.60,5948.7670885,N,01739.2891847,E,4,12,0.49,18.543,M,24.261,M,0.6,0000*50
$GNGGA,090743.80,5948.7670872,N,01739.2891830,E,4,12,0.49,18.543,M,24.261,M,0.8,0000*58
$GNGGA,090744.00,5948.7670870,N,01739.2891831,E,4,12,0.49,18.540,M,24.261,M,1.0,0000*5E
$GNGGA,090744.20,5948.7670875,N,01739.2891830,E,4,12,0.49,18.541,M,24.261,M,0.2,0000*5A
$GNGGA,090744.40,5948.7670878,N,01739.2891834,E,4,12,0.49,18.542,M,24.261,M,0.4,0000*50
$GNGGA,090744.60,5948.7670872,N,01739.2891833,E,4,12,0.49,18.541,M,24.261,M,0.6,0000*5E
$GNGGA,090744.80,5948.7670873,N,01739.2891824,E,4,12,0.49,18.540,M,24.261,M,0.8,0000*58
$GNGGA,090745.00,5948.7670865,N,01739.2891835,E,4,12,0.49,18.541,M,24.261,M,1.0,0000*5E
$GNGGA,090745.20,5948.7670860,N,01739.2891820,E,4,12,0.49,18.540,M,24.261,M,1.2,0000*5E
$GNGGA,090745.40,5948.7670874,N,01739.2891821,E,4,12,0.49,18.543,M,24.261,M,0.4,0000*58
$GNGGA,090745.60,5948.7670873,N,01739.2891841,E,4,12,0.49,18.546,M,24.261,M,0.6,0000*5C
$GNGGA,090745.80,5948.7670873,N,01739.2891829,E,4,12,0.49,18.546,M,24.261,M,0.8,0000*52
$GNGGA,090746.00,5948.7670865,N,01739.2891827,E,4,12,0.49,18.545,M,24.261,M,1.0,0000*5A
$GNGGA,090746.20,5948.7670886,N,01739.2891839,E,4,12,0.49,18.543,M,24.261,M,0.2,0000*5F
$GNGGA,090746.40,5948.7670867,N,01739.2891825,E,4,12,0.49,18.546,M,24.261,M,0.4,0000*58
$GNGGA,090746.60,5948.7670880,N,01739.2891841,E,4,12,0.49,18.544,M,24.261,M,0.6,0000*51
$GNGGA,090746.80,5948.7670880,N,01739.2891849,E,4,12,0.49,18.544,M,24.261,M,0.8,0000*59
$GNGGA,090747.00,5948.7670882,N,01739.2891854,E,4,12,0.49,18.546,M,24.261,M,1.0,0000*55
$GNGGA,090747.20,5948.7670884,N,01739.2891852,E,4,12,0.49,18.548,M,24.261,M,1.2,0000*5B
$GNGGA,090747.40,5948.7670879,N,01739.2891851,E,4,12,0.49,18.549,M,24.261,M,1.4,0000*5B
$GNGGA,090747.60,5948.7670879,N,01739.2891826,E,4,12,0.49,18.547,M,24.261,M,0.6,0000*54
$GNGGA,090747.80,5948.7670871,N,01739.2891820,E,4,12,0.49,18.547,M,24.261,M,0.8,0000*5A
$GNGGA,090748.00,5948.7670875,N,01739.2891840,E,4,12,0.49,18.547,M,24.261,M,1.0,0000*56
$GNGGA,090748.20,5948.7670881,N,01739.2891840,E,4,12,0.49,18.547,M,24.261,M,0.2,0000*5C
$GNGGA,090748.40,5948.7670873,N,01739.2891817,E,4,12,0.49,18.546,M,24.261,M,0.4,0000*52
$GNGGA,090748.60,5948.7670874,N,01739.2891826,E,4,12,0.49,18.546,M,24.261,M,0.6,0000*57
$GNGGA,090748.80,5948.7670879,N,01739.2891832,E,4,12,0.49,18.546,M,24.261,M,0.8,0000*5F
$GNGGA,090749.00,5948.7670877,N,01739.2891824,E,4,12,0.49,18.547,M,24.261,M,1.0,0000*57
$GNGGA,090749.20,5948.7670876,N,01739.2891815,E,4,12,0.49,18.547,M,24.261,M,0.2,0000*55
$GNGGA,090749.40,5948.7670882,N,01739.2891820,E,4,12,0.49,18.545,M,24.261,M,0.4,0000*5A
$GNGGA,090749.60,5948.7670875,N,01739.2891822,E,4,12,0.49,18.544,M,24.261,M,0.6,0000*51
$GNGGA,090749.80,5948.7670881,N,01739.2891834,E,4,12,0.49,18.546,M,24.261,M,0.8,0000*5F
$GNGGA,090750.00,5948.7670877,N,01739.2891826,E,4,12,0.49,18.545,M,24.261,M,1.0,0000*5F
$GNGGA,090750.20,5948.7670875,N,01739.2891826,E,4,12,0.49,18.547,M,24.261,M,1.2,0000*5F
$GNGGA,090750.40,5948.7670880,N,01739.2891820,E,4,12,0.49,18.544,M,24.261,M,0.4,0000*51
$GNGGA,090750.60,5948.7670875,N,01739.2891820,E,4,12,0.49,18.545,M,24.261,M,0.6,0000*5A
$GNGGA,090750.80,5948.7670871,N,01739.2891821,E,4,12,0.49,18.543,M,24.261,M,0.8,0000*59
$GNGGA,090751.00,5948.7670874,N,01739.2891826,E,4,12,0.49,18.546,M,24.261,M,1.0,0000*5E
$GNGGA,090751.20,5948.7670872,N,01739.2891820,E,4,12,0.49,18.544,M,24.261,M,0.2,0000*5D
$GNGGA,090751.40,5948.7670876,N,01739.2891818,E,4,12,0.49,18.543,M,24.261,M,0.4,0000*55
$GNGGA,090751.60,5948.7670873,N,01739.2891827,E,4,12,0.49,18.544,M,24.261,M,0.6,0000*5B
$GNGGA,090751.80,5948.7670874,N,01739.2891832,E,4,12,0.49,18.544,M,24.261,M,0.8,0000*58
$GNGGA,090752.00,5948.7670870,N,01739.2891828,E,4,12,0.49,18.545,M,24.261,M,1.0,0000*54
$GNGGA,090752.20,5948.7670872,N,01739.2891827,E,4,12,0.49,18.545,M,24.261,M,1.2,0000*59
$GNGGA,090752.40,5948.7670887,N,01739.2891832,E,4,12,0.49,18.545,M,24.261,M,0.4,0000*56
$GNGGA,090752.60,5948.7670874,N,01739.2891813,E,4,12,0.49,18.547,M,24.261,M,0.6,0000*5B
$GNGGA,090752.80,5948.7670873,N,01739.2891828,E,4,12,0.49,18.547,M,24.261,M,0.8,0000*54
$GNGGA,090753.00,5948.7670872,N,01739.2891821,E,4,12,0.49,18.548,M,24.261,M,1.0,0000*53
$GNGGA,090753.20,5948.7670875,N,01739.2891819,E,4,12,0.49,18.543,M,24.261,M,0.2,0000*55
$GNGGA,090753.40,5948.7670875,N,01739.2891820,E,4,12,0.49,18.543,M,24.261,M,0.4,0000*5F
$GNGGA,090753.60,5948.7670871,N,01739.2891819,E,4,12,0.49,18.543,M,24.261,M,0.6,0000*51
$GNGGA,090753.80,5948.7670871,N,01739.2891823,E,4,12,0.49,18.545,M,24.261,M,0.8,0000*5E
$GNGGA,090754.00,5948.7670870,N,01739.2891824,E,4,12,0.49,18.545,M,24.261,M,1.0,0000*5E
$GNGGA,090754.20,5948.7670878,N,01739.2891821,E,4,12,0.49,18.548,M,24.261,M,0.2,0000*5F
$GNGGA,090754.40,5948.7670883,N,01739.2891826,E,4,12,0.49,18.549,M,24.261,M,0.4,0000*5D
$GNGGA,090754.60,5948.7670880,N,01739.2891828,E,4,12,0.49,18.551,M,24.261,M,0.6,0000*59
$GNGGA,090754.80,5948.7670874,N,01739.2891838,E,4,12,0.49,18.549,M,24.261,M,0.8,0000*5A
$GNGGA,090755.00,5948.7670871,N,01739.2891829,E,4,12,0.49,18.550,M,24.261,M,1.0,0000*57
$GNGGA,090755.20,5948.7670866,N,01739.2891804,E,4,12,0.49,18.546,M,24.261,M,0.2,0000*58
$GNGGA,090755.40,5948.7670864,N,01739.2891813,E,4,12,0.49,18.547,M,24.261,M,0.4,0000*5D
$GNGGA,090755.60,5948.7670868,N,01739.2891816,E,4,12,0.49,18.547,M,24.261,M,0.6,0000*54
$GNGGA,090755.80,5948.7670869,N,01739.2891822,E,4,12,0.49,18.545,M,24.261,M,0.8,0000*50
$GNGGA,090756.00,5948.7670874,N,01739.2891827,E,4,12,0.49,18.546,M,24.261,M,1.0,0000*58
$GNGGA,090756.20,5948.7670871,N,01739.2891827,E,4,12,0.49,18.545,M,24.261,M,1.2,0000*5E
$GNGGA,090756.40,5948.7670876,N,01739.2891829,E,4,12,0.49,18.543,M,24.261,M,1.4,0000*51
$GNGGA,090756.60,5948.7670874,N,01739.2891818,E,4,12,0.49,18.544,M,24.261,M,0.6,0000*57
$GNGGA,090756.80,5948.7670879,N,01739.2891835,E,4,12,0.49,18.544,M,24.261,M,0.8,0000*55
$GNGGA,090757.00,5948.7670878,N,01739.2891839,E,4,12,0.49,18.544,M,24.261,M,1.0,0000*58
$GNGGA,090757.20,5948.7670878,N,01739.2891804,E,4,12,0.49,18.547,M,24.261,M,0.2,0000*54
$GNGGA,090757.40,5948.7670878,N,01739.2891816,E,4,12,0.49,18.545,M,24.261,M,0.4,0000*55
$GNGGA,090757.60,5948.7670882,N,01739.2891812,E,4,12,0.49,18.546,M,24.261,M,0.6,0000*57
$GNGGA,090757.80,5948.7670882,N,01739.2891811,E,4,12,0.49,18.545,M,24.261,M,0.8,0000*57
$GNGGA,090758.00,5948.7670874,N,01739.2891798,E,4,12,0.49,18.546,M,24.261,M,1.0,0000*5D
$GNGGA,090758.20,5948.7670872,N,01739.2891804,E,4,12,0.49,18.544,M,24.261,M,1.2,0000*53
$GNGGA,090758.40,5948.7670875,N,01739.2891805,E,4,12,0.49,18.547,M,24.261,M,0.4,0000*57
$GNGGA,090758.60,5948.7670870,N,01739.2891796,E,4,12,0.49,18.547,M,24.261,M,0.6,0000*57
$GNGGA,090758.80,5948.7670874,N,01739.2891805,E,4,12,0.49,18.546,M,24.261,M,0.8,0000*57
$GNGGA,090759.00,5948.7670874,N,01739.2891816,E,4,12,0.49,18.545,M,24.261,M,1.0,0000*56
$GNGGA,090759.20,5948.7670867,N,01739.2891806,E,4,12,0.49,18.546,M,24.261,M,0.2,0000*57
$GNGGA,090759.40,5948.7670867,N,01739.2891805,E,4,12,0.49,18.547,M,24.261,M,0.4,0000*55
$GNGGA,090759.60,5948.7670865,N,01739.2891810,E,4,12,0.49,18.546,M,24.261,M,0.6,0000*52
$GNGGA,090759.80,5948.7670872,N,01739.2891820,E,4,12,0.49,18.544,M,24.261,M,0.8,0000*55
$GNGGA,090800.00,5948.7670870,N,01739.2891825,E,4,12,0.49,18.542,M,24.261,M,1.0,0000*56
$GNGGA,090800.20,5948.7670871,N,01739.2891826,E,4,12,0.49,18.540,M,24.261,M,1.2,0000*56
$GNGGA,090800.40,5948.7670868,N,01739.2891800,E,4,12,0.49,18.545,M,24.261,M,0.4,0000*5E
$GNGGA,090800.60,5948.7670867,N,01739.2891807,E,4,12,0.49,18.543,M,24.261,M,0.6,0000*50
$GNGGA,090800.80,5948.7670867,N,01739.2891810,E,4,12,0.49,18.543,M,24.261,M,0.8,0000*56
$GNGGA,090801.00,5948.7670872,N,01739.2891823,E,4,12,0.49,18.543,M,24.261,M,1.0,0000*52
$GNGGA,090801.20,5948.7670876,N,01739.2891810,E,4,12,0.49,18.542,M,24.261,M,0.2,0000*56
$GNGGA,090801.40,5948.7670872,N,01739.2891820,E,4,12,0.49,18.544,M,24.261,M,0.4,0000*57
$GNGGA,090801.60,5948.7670872,N,01739.2891809,E,4,12,0.49,18.542,M,24.261,M,0.6,0000*5A
$GNGGA,090801.80,5948.7670870,N,01739.2891808,E,4,12,0.49,18.541,M,24.261,M,0.8,0000*5A
$GNGGA,090802.00,5948.7670866,N,01739.2891799,E,4,12,0.49,18.539,M,24.261,M,1.0,0000*57
$GNGGA,090802.20,5948.7670877,N,01739.2891824,E,4,12,0.49,18.543,M,24.261,M,0.2,0000*52
$GNGGA,090802.40,5948.7670881,N,01739.2891819,E,4,12,0.49,18.544,M,24.261,M,0.4,0000*52
$GNGGA,090802.60,5948.7670881,N,01739.2891819,E,4,12,0.49,18.545,M,24.261,M,0.6,0000*53
$GNGGA,090802.80,5948.7670882,N,01739.2891817,E,4,12,0.49,18.544,M,24.261,M,0.8,0000*5F
$GNGGA,090803.00,5948.7670884,N,01739.2891819,E,4,12,0.49,18.542,M,24.261,M,1.0,0000*51
$GNGGA,090803.20,5948.7670883,N,01739.2891827,E,4,12,0.49,18.544,M,24.261,M,1.2,0000*5D
$GNGGA,090803.40,5948.7670890,N,01739.2891829,E,4,12,0.49,18.543,M,24.261,M,1.4,0000*56
$GNGGA,090803.60,5948.7670883,N,01739.2891822,E,4,12,0.49,18.543,M,24.261,M,0.6,0000*5E
$GNGGA,090803.80,5948.7670884,N,01739.2891818,E,4,12,0.49,18.542,M,24.261,M,0.8,0000*51
$GNGGA,090804.00,5948.7670883,N,01739.2891819,E,4,12,0.49,18.540,M,24.261,M,1.0,0000*53
$GNGGA,090804.20,5948.7670877,N,01739.2891831,E,4,12,0.49,18.544,M,24.261,M,0.2,0000*57
$GNGGA,090804.40,5948.7670877,N,01739.2891836,E,4,12,0.49,18.542,M,24.261,M,0.4,0000*56
$GNGGA,090804.60,5948.7670877,N,01739.2891838,E,4,12,0.49,18.544,M,24.261,M,0.6,0000*5E
$GNGGA,090804.80,5948.7670882,N,01739.2891837,E,4,12,0.49,18.546,M,24.261,M,0.8,0000*59
$GNGGA,090805.00,5948.7670874,N,01739.2891835,E,4,12,0.49,18.545,M,24.261,M,1.0,0000*51
$GNGGA,090805.20,5948.7670876,N,01739.2891843,E,4,12,0.49,18.544,M,24.261,M,1.2,0000*53
$GNGGA,090805.40,5948.7670873,N,01739.2891817,E,4,12,0.49,18.543,M,24.261,M,0.4,0000*51
$GNGGA,090805.60,5948.7670877,N,01739.2891830,E,4,12,0.49,18.543,M,24.261,M,0.6,0000*50
$GNGGA,090805.80,5948.7670873,N,01739.2891839,E,4,12,0.49,18.543,M,24.261,M,0.8,0000*5D
$GNGGA,090806.00,5948.7670871,N,01739.2891822,E,4,12,0.49,18.544,M,24.261,M,1.0,0000*50
$GNGGA,090806.20,5948.7670874,N,01739.2891845,E,4,12,0.49,18.543,M,24.261,M,0.2,0000*52
$GNGGA,090806.40,5948.7670874,N,01739.2891846,E,4,12,0.49,18.544,M,24.261,M,0.4,0000*56
$GNGGA,090806.60,5948.7670874,N,01739.2891843,E,4,12,0.49,18.544,M,24.261,M,0.6,0000*53
$GNGGA,090806.80,5948.7670866,N,01739.2891846,E,4,12,0.49,18.544,M,24.261,M,0.8,0000*55
$GNGGA,090807.00,5948.7670868,N,01739.2891849,E,4,12,0.49,18.541,M,24.261,M,1.0,0000*51
$GNGGA,090807.20,5948.7670883,N,01739.2891844,E,4,12,0.49,18.545,M,24.261,M,0.2,0000*5C
$GNGGA,090807.40,5948.7670883,N,01739.2891837,E,4,12,0.49,18.547,M,24.261,M,0.4,0000*5A
$GNGGA,090807.60,5948.7670879,N,01739.2891845,E,4,12,0.49,18.546,M,24.261,M,0.6,0000*5B
$GNGGA,090807.80,5948.7670870,N,01739.2891835,E,4,12,0.49,18.546,M,24.261,M,0.8,0000*55
$GNGGA,090808.00,5948.7670869,N,01739.2891836,E,4,12,0.49,18.547,M,24.261,M,1.0,0000*51
$GNGGA,090808.20,5948.7670876,N,01739.2891852,E,4,12,0.49,18.544,M,24.261,M,1.2,0000*5E
$GNGGA,090808.40,5948.7670872,N,01739.2891840,E,4,12,0.49,18.546,M,24.261,M,0.4,0000*5A
$GNGGA,090808.60,5948.7670877,N,01739.2891844,E,4,12,0.49,18.544,M,24.261,M,0.6,0000*59
$GNGGA,090808.80,5948.7670876,N,01739.2891838,E,4,12,0.49,18.545,M,24.261,M,0.8,0000*52
$GNGGA,090809.00,5948.7670871,N,01739.2891823,E,4,12,0.49,18.545,M,24.261,M,1.0,0000*5F
$GNGGA,090809.20,5948.7670886,N,01739.2891841,E,4,12,0.49,18.548,M,24.261,M,0.2,0000*5F
$GNGGA,090809.40,5948.7670887,N,01739.2891848,E,4,12,0.49,18.549,M,24.261,M,0.4,0000*56
$GNGGA,090809.60,5948.7670885,N,01739.2891848,E,4,12,0.49,18.547,M,24.261,M,0.6,0000*5A
$GNGGA,090809.80,5948.7670889,N,01739.2891856,E,4,12,0.49,18.548,M,24.261,M,0.8,0000*56
$GNGGA,090810.00,5948.7670886,N,01739.2891849,E,4,12,0.49,18.548,M,24.261,M,1.0,0000*5E
$GNGGA,090810.20,5948.7670877,N,01739.2891835,E,4,12,0.49,18.547,M,24.261,M,0.2,0000*55
$GNGGA,090810.40,5948.7670871,N,01739.2891826,E,4,12,0.49,18.548,M,24.261,M,0.4,0000*5E
$GNGGA,090810.60,5948.7670877,N,01739.2891836,E,4,12,0.49,18.549,M,24.261,M,0.6,0000*58
$GNGGA,090810.80,5948.7670875,N,01739.2891827,E,4,12,0.49,18.550,M,24.261,M,0.8,0000*52
$GNGGA,090811.00,5948.7670876,N,01739.2891838,E,4,12,0.49,18.550,M,24.261,M,1.0,0000*5F
$GNGGA,090811.20,5948.7670875,N,01739.2891822,E,4,12,0.49,18.547,M,24.261,M,0.2,0000*50
$GNGGA,090811.40,5948.7670876,N,01739.2891838,E,4,12,0.49,18.547,M,24.261,M,0.4,0000*58
$GNGGA,090811.60,5948.7670875,N,01739.2891840,E,4,12,0.49,18.547,M,24.261,M,0.6,0000*54
$GNGGA,090811.80,5948.7670870,N,01739.2891834,E,4,12,0.49,18.547,M,24.261,M,0.8,0000*52
$GNGGA,090812.00,5948.7670866,N,01739.2891842,E,4,12,0.49,18.545,M,24.261,M,1.0,0000*54
$GNGGA,090812.20,5948.7670872,N,01739.2891843,E,4,12,0.49,18.546,M,24.261,M,1.2,0000*53
$GNGGA,090812.40,5948.7670879,N,01739.2891836,E,4,12,0.49,18.548,M,24.261,M,0.4,0000*55
$GNGGA,090812.60,5948.7670879,N,01739.2891835,E,4,12,0.49,18.547,M,24.261,M,0.6,0000*59
$GNGGA,090812.80,5948.7670877,N,01739.2891836,E,4,12,0.49,18.544,M,24.261,M,0.8,0000*57
$GNGGA,090813.00,5948.7670874,N,01739.2891834,E,4,12,0.49,18.543,M,24.261,M,1.0,0000*51
$GNGGA,090813.20,5948.7670877,N,01739.2891828,E,4,12,0.49,18.548,M,24.261,M,0.2,0000*55
$GNGGA,090813.40,5948.7670875,N,01739.2891823,E,4,12,0.49,18.548,M,24.261,M,0.4,0000*5C
$GNGGA,090813.60,5948.7670873,N,01739.2891825,E,4,12,0.49,18.546,M,24.261,M,0.6,0000*52
$GNGGA,090813.80,5948.7670873,N,01739.2891827,E,4,12,0.49,18.546,M,24.261,M,0.8,0000*50
$GNGGA,090814.00,5948.7670871,N,01739.2891834,E,4,12,0.49,18.545,M,24.261,M,1.0,0000*55
$GNGGA,090814.20,5948.7670872,N,01739.2891821,E,4,12,0.49,18.551,M,24.261,M,0.2,0000*56
$GNGGA,090814.40,5948.7670871,N,01739.2891833,E,4,12,0.49,18.550,M,24.261,M,0.4,0000*57
$GNGGA,090814.60,5948.7670870,N,01739.2891833,E,4,12,0.49,18.551,M,24.261,M,0.6,0000*57
$GNGGA,090814.80,5948.7670867,N,01739.2891835,E,4,12,0.49,18.551,M,24.261,M,0.8,0000*57
$GNGGA,090815.00,5948.7670861,N,01739.2891825,E,4,12,0.49,18.551,M,24.261,M,1.0,0000*50
$GNGGA,090815.20,5948.7670871,N,01739.2891827,E,4,12,0.49,18.549,M,24.261,M,0.2,0000*5B
$GNGGA,090815.40,5948.7670868,N,01739.2891830,E,4,12,0.49,18.549,M,24.261,M,0.4,0000*55
$GNGGA,090815.60,5948.7670865,N,01739.2891825,E,4,12,0.49,18.550,M,24.261,M,0.6,0000*54
$GNGGA,090815.80,5948.7670870,N,01739.2891844,E,4,12,0.49,18.553,M,24.261,M,0.8,0000*54
$GNGGA,090816.00,5948.7670866,N,01739.2891842,E,4,12,0.49,18.553,M,24.261,M,1.0,0000*57
$GNGGA,090816.20,5948.7670878,N,01739.2891853,E,4,12,0.49,18.556,M,24.261,M,1.2,0000*5D
$GNGGA,090816.40,5948.7670877,N,01739.2891855,E,4,12,0.49,18.552,M,24.261,M,0.4,0000*51
$GNGGA,090816.60,5948.7670869,N,01739.2891848,E,4,12,0.49,18.553,M,24.261,M,0.6,0000*53
$GNGGA,090816.80,5948.7670874,N,01739.2891861,E,4,12,0.49,18.553,M,24.261,M,0.8,0000*54
$GNGGA,090817.00,5948.7670872,N,01739.2891859,E,4,12,0.49,18.554,M,24.261,M,1.0,0000*5E
$GNGGA,090817.20,5948.7670876,N,01739.2891860,E,4,12,0.49,18.555,M,24.261,M,1.2,0000*51
$GNGGA,090817.40,5948.7670877,N,01739.2891857,E,4,12,0.49,18.552,M,24.261,M,0.4,0000*52
$GNGGA,090817.60,5948.7670873,N,01739.2891853,E,4,12,0.49,18.549,M,24.261,M,0.6,0000*58
$GNGGA,090817.80,5948.7670872,N,01739.2891846,E,4,12,0.49,18.549,M,24.261,M,0.8,0000*5D
$GNGGA,090818.00,5948.7670871,N,01739.2891863,E,4,12,0.49,18.551,M,24.261,M,1.0,0000*5E
$GNGGA,090818.20,5948.7670873,N,01739.2891842,E,4,12,0.49,18.549,M,24.261,M,0.2,0000*57
$GNGGA,090818.40,5948.7670870,N,01739.2891842,E,4,12,0.49,18.549,M,24.261,M,0.4,0000*54
$GNGGA,090818.60,5948.7670867,N,01739.2891835,E,4,12,0.49,18.549,M,24.261,M,0.6,0000*52
$GNGGA,090818.80,5948.7670873,N,01739.2891850,E,4,12,0.49,18.548,M,24.261,M,0.8,0000*55
$GNGGA,090819.00,5948.7670868,N,01739.2891845,E,4,12,0.49,18.546,M,24.261,M,1.0,0000*55
$GNGGA,090819.20,5948.7670870,N,01739.2891843,E,4,12,0.49,18.547,M,24.261,M,0.2,0000*5A
$GNGGA,090819.40,5948.7670868,N,01739.2891843,E,4,12,0.49,18.547,M,24.261,M,0.4,0000*53
$GNGGA,090819.60,5948.7670868,N,01739.2891849,E,4,12,0.49,18.546,M,24.261,M,0.6,0000*58
$GNGGA,090819.80,5948.7670860,N,01739.2891851,E,4,12,0.49,18.544,M,24.261,M,0.8,0000*5B
$GNGGA,090820.00,5948.7670859,N,01739.2891842,E,4,12,0.49,18.544,M,24.261,M,1.0,0000*58
$GNGGA,090820.20,5948.7670874,N,01739.2891842,E,4,12,0.49,18.546,M,24.261,M,0.2,0000*54
$GNGGA,090820.40,5948.7670873,N,01739.2891844,E,4,12,0.49,18.547,M,24.261,M,0.4,0000*54
$GNGGA,090820.60,5948.7670869,N,01739.2891843,E,4,12,0.49,18.546,M,24.261,M,0.6,0000*59
$GNGGA,090820.80,5948.7670871,N,01739.2891848,E,4,12,0.49,18.546,M,24.261,M,0.8,0000*5B
$GNGGA,090821.00,5948.7670866,N,01739.2891840,E,4,12,0.49,18.545,M,24.261,M,1.0,0000*56
$GNGGA,090821.20,5948.7670868,N,01739.2891842,E,4,12,0.49,18.546,M,24.261,M,1.2,0000*59
$GNGGA,090821.40,5948.7670878,N,01739.2891853,E,4,12,0.49,18.548,M,24.261,M,0.4,0000*57
$GNGGA,090821.60,5948.7670882,N,01739.2891861,E,4,12,0.49,18.549,M,24.261,M,0.6,0000*52
$GNGGA,090821.80,5948.7670882,N,01739.2891867,E,4,12,0.49,18.550,M,24.261,M,0.8,0000*5C
$GNGGA,090822.00,5948.7670875,N,01739.2891859,E,4,12,0.49,18.549,M,24.261,M,1.0,0000*53
$GNGGA,090822.20,5948.7670862,N,01739.2891829,E,4,12,0.49,18.547,M,24.261,M,0.2,0000*5D
$GNGGA,090822.40,5948.7670868,N,01739.2891841,E,4,12,0.49,18.546,M,24.261,M,0.4,0000*58
$GNGGA,090822.60,5948.7670861,N,01739.2891846,E,4,12,0.49,18.546,M,24.261,M,0.6,0000*56
$GNGGA,090822.80,5948.7670861,N,01739.2891843,E,4,12,0.49,18.545,M,24.261,M,0.8,0000*50
$GNGGA,090823.00,5948.7670860,N,01739.2891845,E,4,12,0.49,18.545,M,24.261,M,1.0,0000*57
$GNGGA,090823.20,5948.7670861,N,01739.2891847,E,4,12,0.49,18.547,M,24.261,M,1.2,0000*56
$GNGGA,090823.40,5948.7670871,N,01739.2891843,E,4,12,0.49,18.550,M,24.261,M,0.4,0000*54
$GNGGA,090823.60,5948.7670869,N,01739.2891843,E,4,12,0.49,18.547,M,24.261,M,0.6,0000*5B
$GNGGA,090823.80,5948.7670869,N,01739.2891841,E,4,12,0.49,18.548,M,24.261,M,0.8,0000*56
$GNGGA,090824.00,5948.7670864,N,01739.2891844,E,4,12,0.49,18.547,M,24.261,M,1.0,0000*57
$GNGGA,090824.20,5948.7670873,N,01739.2891832,E,4,12,0.49,18.548,M,24.261,M,0.2,0000*5E
$GNGGA,090824.40,5948.7670867,N,01739.2891839,E,4,12,0.49,18.547,M,24.261,M,0.4,0000*5F
$GNGGA,090824.60,5948.7670862,N,01739.2891836,E,4,12,0.49,18.545,M,24.261,M,0.6,0000*57
$GNGGA,090824.80,5948.7670864,N,01739.2891846,E,4,12,0.49,18.544,M,24.261,M,0.8,0000*57
$GNGGA,090825.00,5948.7670866,N,01739.2891854,E,4,12,0.49,18.544,M,24.261,M,1.0,0000*56
$GNGGA,090825.20,5948.7670866,N,01739.2891838,E,4,12,0.49,18.542,M,24.261,M,1.2,0000*5A
$GNGGA,090825.40,5948.7670865,N,01739.2891842,E,4,12,0.49,18.545,M,24.261,M,0.4,0000*52
$GNGGA,090825.60,5948.7670869,N,01739.2891844,E,4,12,0.49,18.543,M,24.261,M,0.6,0000*5E
$GNGGA,090825.80,5948.7670867,N,01739.2891834,E,4,12,0.49,18.543,M,24.261,M,0.8,0000*57
$GNGGA,090826.00,5948.7670865,N,01739.2891838,E,4,12,0.49,18.545,M,24.261,M,1.0,0000*5D
$GNGGA,090826.20,5948.7670866,N,01739.2891849,E,4,12,0.49,18.545,M,24.261,M,0.2,0000*59
$GNGGA,090826.40,5948.7670869,N,01739.2891864,E,4,12,0.49,18.544,M,24.261,M,0.4,0000*58
$GNGGA,090826.60,5948.7670866,N,01739.2891844,E,4,12,0.49,18.545,M,24.261,M,0.6,0000*54
$GNGGA,090826.80,5948.7670866,N,01739.2891859,E,4,12,0.49,18.544,M,24.261,M,0.8,0000*59
$GNGGA,090827.00,5948.7670868,N,01739.2891849,E,4,12,0.49,18.545,M,24.261,M,1.0,0000*57
$GNGGA,090827.20,5948.7670868,N,01739.2891859,E,4,12,0.49,18.544,M,24.261,M,1.2,0000*57
$GNGGA,090827.40,5948.7670871,N,01739.2891869,E,4,12,0.49,18.545,M,24.261,M,1.4,0000*5D
$GNGGA,090827.60,5948.7670868,N,01739.2891844,E,4,12,0.49,18.543,M,24.261,M,0.6,0000*5D
$GNGGA,090827.80,5948.7670871,N,01739.2891845,E,4,12,0.49,18.545,M,24.261,M,0.8,0000*52
$GNGGA,090828.00,5948.7670873,N,01739.2891846,E,4,12,0.49,18.544,M,24.261,M,1.0,0000*5C
$GNGGA,090828.20,5948.7670874,N,01739.2891835,E,4,12,0.49,18.544,M,24.261,M,0.2,0000*5E
$GNGGA,090828.40,5948.7670877,N,01739.2891840,E,4,12,0.49,18.545,M,24.261,M,0.4,0000*5E
$GNGGA,090828.60,5948.7670875,N,01739.2891851,E,4,12,0.49,18.543,M,24.261,M,0.6,0000*5A
$GNGGA,090828.80,5948.7670874,N,01739.2891834,E,4,12,0.49,18.543,M,24.261,M,0.8,0000*58
$GNGGA,090829.00,5948.7670871,N,01739.2891844,E,4,12,0.49,18.543,M,24.261,M,1.0,0000*5A
$GNGGA,090829.20,5948.7670876,N,01739.2891829,E,4,12,0.49,18.544,M,24.261,M,0.2,0000*50
$GNGGA,090829.40,5948.7670879,N,01739.2891842,E,4,12,0.49,18.543,M,24.261,M,0.4,0000*55
$GNGGA,090829.60,5948.7670875,N,01739.2891845,E,4,12,0.49,18.544,M,24.261,M,0.6,0000*59
$GNGGA,090829.80,5948.7670878,N,01739.2891845,E,4,12,0.49,18.541,M,24.261,M,0.8,0000*51
$GNGGA,090830.00,5948.7670872,N,01739.2891844,E,4,12,0.49,18.542,M,24.261,M,1.0,0000*50
$GNGGA,090830.20,5948.7670877,N,01739.2891841,E,4,12,0.49,18.543,M,24.261,M,0.2,0000*50
$GNGGA,090830.40,5948.7670872,N,01739.2891826,E,4,12,0.49,18.545,M,24.261,M,0.4,0000*52
$GNGGA,090830.60,5948.7670871,N,01739.2891842,E,4,12,0.49,18.543,M,24.261,M,0.6,0000*55
$GNGGA,090830.80,5948.7670868,N,01739.2891843,E,4,12,0.49,18.545,M,24.261,M,0.8,0000*5A
$GNGGA,090831.00,5948.7670874,N,01739.2891845,E,4,12,0.49,18.543,M,24.261,M,1.0,0000*57
$GNGGA,090831.20,5948.7670870,N,01739.2891843,E,4,12,0.49,18.543,M,24.261,M,1.2,0000*55
$GNGGA,090831.40,5948.7670872,N,01739.2891843,E,4,12,0.49,18.548,M,24.261,M,0.4,0000*5D
$GNGGA,090831.60,5948.7670874,N,01739.2891840,E,4,12,0.49,18.549,M,24.261,M,0.6,0000*59
$GNGGA,090831.80,5948.7670873,N,01739.2891849,E,4,12,0.49,18.549,M,24.261,M,0.8,0000*57
$GNGGA,090832.00,5948.7670873,N,01739.2891849,E,4,12,0.49,18.552,M,24.261,M,1.0,0000*5F
$GNGGA,090832.20,5948.7670872,N,01739.2891834,E,4,12,0.49,18.551,M,24.261,M,0.2,0000*56
$GNGGA,090832.40,5948.7670875,N,01739.2891833,E,4,12,0.49,18.550,M,24.261,M,0.4,0000*57
$GNGGA,090832.60,5948.7670875,N,01739.2891836,E,4,12,0.49,18.551,M,24.261,M,0.6,0000*53
$GNGGA,090832.80,5948.7670876,N,01739.2891837,E,4,12,0.49,18.550,M,24.261,M,0.8,0000*50
$GNGGA,090833.00,5948.7670875,N,01739.2891852,E,4,12,0.49,18.549,M,24.261,M,1.0,0000*58
$GNGGA,090833.20,5948.7670872,N,01739.2891851,E,4,12,0.49,18.549,M,24.261,M,1.2,0000*5C
$GNGGA,090833.40,5948.7670880,N,01739.2891840,E,4,12,0.49,18.549,M,24.261,M,0.4,0000*50
$GNGGA,090833.60,5948.7670872,N,01739.2891825,E,4,12,0.49,18.550,M,24.261,M,0.6,0000*56
$GNGGA,090833.80,5948.7670874,N,01739.2891835,E,4,12,0.49,18.550,M,24.261,M,0.8,0000*51
$GNGGA,090834.00,5948.7670869,N,01739.2891834,E,4,12,0.49,18.550,M,24.261,M,1.0,0000*5A
$GNGGA,090834.20,5948.7670873,N,01739.2891841,E,4,12,0.49,18.548,M,24.261,M,0.2,0000*5B
$GNGGA,090834.40,5948.7670868,N,01739.2891842,E,4,12,0.49,18.548,M,24.261,M,0.4,0000*52
$GNGGA,090834.60,5948.7670867,N,01739.2891835,E,4,12,0.49,18.547,M,24.261,M,0.6,0000*52
$GNGGA,090834.80,5948.7670867,N,01739.2891835,E,4,12,0.49,18.548,M,24.261,M,0.8,0000*5D
$GNGGA,090835.00,5948.7670867,N,01739.2891840,E,4,12,0.49,18.549,M,24.261,M,1.0,0000*5E
$GNGGA,090835.20,5948.7670880,N,01739.2891852,E,4,12,0.49,18.549,M,24.261,M,0.2,0000*55
$GNGGA,090835.40,5948.7670872,N,01739.2891841,E,4,12,0.49,18.548,M,24.261,M,0.4,0000*5B
$GNGGA,090835.60,5948.7670871,N,01739.2891833,E,4,12,0.49,18.546,M,24.261,M,0.6,0000*53
$GNGGA,090835.80,5948.7670867,N,01739.2891844,E,4,12,0.49,18.545,M,24.261,M,0.8,0000*57
$GNGGA,090836.00,5948.7670866,N,01739.2891841,E,4,12,0.49,18.542,M,24.261,M,1.0,0000*56
$GNGGA,090836.20,5948.7670865,N,01739.2891835,E,4,12,0.49,18.541,M,24.261,M,1.2,0000*55
$GNGGA,090836.40,5948.7670862,N,01739.2891845,E,4,12,0.49,18.540,M,24.261,M,1.4,0000*54
$GNGGA,090836.60,5948.7670872,N,01739.2891840,E,4,12,0.49,18.546,M,24.261,M,0.6,0000*57
$GNGGA,090836.80,5948.7670874,N,01739.2891843,E,4,12,0.49,18.546,M,24.261,M,0.8,0000*52
$GNGGA,090837.00,5948.7670873,N,01739.2891849,E,4,12,0.49,18.546,M,24.261,M,1.0,0000*5F
$GNGGA,090837.20,5948.7670873,N,01739.2891831,E,4,12,0.49,18.550,M,24.261,M,0.2,0000*56
$GNGGA,090837.40,5948.7670874,N,01739.2891843,E,4,12,0.49,18.550,M,24.261,M,0.4,0000*54
$GNGGA,090837.60,5948.7670871,N,01739.2891847,E,4,12,0.49,18.548,M,24.261,M,0.6,0000*5C
$GNGGA,090837.80,5948.7670879,N,01739.2891862,E,4,12,0.49,18.547,M,24.261,M,0.8,0000*5C
$GNGGA,090838.00,5948.7670873,N,01739.2891848,E,4,12,0.49,18.546,M,24.261,M,1.0,0000*51
$GNGGA,090838.20,5948.7670876,N,01739.2891858,E,4,12,0.49,18.547,M,24.261,M,1.2,0000*54
$GNGGA,090838.40,5948.7670876,N,01739.2891846,E,4,12,0.49,18.545,M,24.261,M,0.4,0000*58
$GNGGA,090838.60,5948.7670874,N,01739.2891844,E,4,12,0.49,18.545,M,24.261,M,0.6,0000*58
$GNGGA,090838.80,5948.7670867,N,01739.2891847,E,4,12,0.49,18.544,M,24.261,M,0.8,0000*58
$GNGGA,090839.00,5948.7670867,N,01739.2891848,E,4,12,0.49,18.544,M,24.261,M,1.0,0000*57
$GNGGA,090839.20,5948.7670868,N,01739.2891826,E,4,12,0.49,18.550,M,24.261,M,0.2,0000*54
$GNGGA,090839.40,5948.7670868,N,01739.2891832,E,4,12,0.49,18.550,M,24.261,M,0.4,0000*51
$GNGGA,090839.60,5948.7670865,N,01739.2891840,E,4,12,0.49,18.547,M,24.261,M,0.6,0000*5F
$GNGGA,090839.80,5948.7670861,N,01739.2891837,E,4,12,0.49,18.544,M,24.261,M,0.8,0000*58
$GNGGA,090840.00,5948.7670860,N,01739.2891850,E,4,12,0.49,18.545,M,24.261,M,1.0,0000*56
$GNGGA,090840.20,5948.7670876,N,01739.2891845,E,4,12,0.49,18.546,M,24.261,M,0.2,0000*57
$GNGGA,090840.40,5948.7670872,N,01739.2891850,E,4,12,0.49,18.547,M,24.261,M,0.4,0000*56
$GNGGA,090840.60,5948.7670873,N,01739.2891847,E,4,12,0.49,18.546,M,24.261,M,0.6,0000*50
$GNGGA,090840.80,5948.7670868,N,01739.2891853,E,4,12,0.49,18.546,M,24.261,M,0.8,0000*5F
$GNGGA,090841.00,5948.7670869,N,01739.2891852,E,4,12,0.49,18.544,M,24.261,M,1.0,0000*5D
$GNGGA,090841.20,5948.7670867,N,01739.2891830,E,4,12,0.49,18.550,M,24.261,M,0.2,0000*53
$GNGGA,090841.40,5948.7670868,N,01739.2891827,E,4,12,0.49,18.552,M,24.261,M,0.4,0000*58
$GNGGA,090841.60,5948.7670870,N,01739.2891827,E,4,12,0.49,18.550,M,24.261,M,0.6,0000*53
$GNGGA,090841.80,5948.7670875,N,01739.2891840,E,4,12,0.49,18.550,M,24.261,M,0.8,0000*57
$GNGGA,090842.00,5948.7670870,N,01739.2891829,E,4,12,0.49,18.549,M,24.261,M,1.0,0000*57
$GNGGA,090842.20,5948.7670883,N,01739.2891835,E,4,12,0.49,18.546,M,24.261,M,1.2,0000*59
$GNGGA,090842.40,5948.7670883,N,01739.2891825,E,4,12,0.49,18.548,M,24.261,M,0.4,0000*57
$GNGGA,090842.60,5948.7670884,N,01739.2891825,E,4,12,0.49,18.546,M,24.261,M,0.6,0000*5E
$GNGGA,090842.80,5948.7670881,N,01739.2891831,E,4,12,0.49,18.544,M,24.261,M,0.8,0000*5C
$GNGGA,090843.00,5948.7670885,N,01739.2891825,E,4,12,0.49,18.543,M,24.261,M,1.0,0000*5A
$GNGGA,090843.20,5948.7670883,N,01739.2891838,E,4,12,0.49,18.541,M,24.261,M,1.2,0000*52
$GNGGA,090843.40,5948.7670890,N,01739.2891854,E,4,12,0.49,18.548,M,24.261,M,0.4,0000*52
$GNGGA,090843.60,5948.7670882,N,01739.2891842,E,4,12,0.49,18.548,M,24.261,M,0.6,0000*56
$GNGGA,090843.80,5948.7670883,N,01739.2891849,E,4,12,0.49,18.547,M,24.261,M,0.8,0000*53
$GNGGA,090844.00,5948.7670881,N,01739.2891848,E,4,12,0.49,18.546,M,24.261,M,1.0,0000*57
$GNGGA,090844.20,5948.7670879,N,01739.2891844,E,4,12,0.49,18.548,M,24.261,M,0.2,0000*53
$GNGGA,090844.40,5948.7670879,N,01739.2891844,E,4,12,0.49,18.547,M,24.261,M,0.4,0000*5C
$GNGGA,090844.60,5948.7670879,N,01739.2891846,E,4,12,0.49,18.547,M,24.261,M,0.6,0000*5E
$GNGGA,090844.80,5948.7670881,N,01739.2891847,E,4,12,0.49,18.547,M,24.261,M,0.8,0000*58
$GNGGA,090845.00,5948.7670877,N,01739.2891851,E,4,12,0.49,18.543,M,24.261,M,1.0,0000*52
$GNGGA,090845.20,5948.7670872,N,01739.2891845,E,4,12,0.49,18.542,M,24.261,M,1.2,0000*53
$GNGGA,090845.40,5948.7670873,N,01739.2891847,E,4,12,0.49,18.541,M,24.261,M,1.4,0000*53
$GNGGA,090845.60,5948.7670880,N,01739.2891856,E,4,12,0.49,18.548,M,24.261,M,0.6,0000*57
$GNGGA,090845.80,5948.7670870,N,01739.2891833,E,4,12,0.49,18.549,M,24.261,M,0.8,0000*5A
$GNGGA,090846.00,5948.7670876,N,01739.2891845,E,4,12,0.49,18.547,M,24.261,M,1.0,0000*51
$GNGGA,090846.20,5948.7670876,N,01739.2891833,E,4,12,0.49,18.549,M,24.261,M,0.2,0000*5F
$GNGGA,090846.40,5948.7670882,N,01739.2891836,E,4,12,0.49,18.550,M,24.261,M,0.4,0000*59
$GNGGA,090846.60,5948.7670875,N,01739.2891832,E,4,12,0.49,18.549,M,24.261,M,0.6,0000*5D
$GNGGA,090846.80,5948.7670874,N,01739.2891841,E,4,12,0.49,18.549,M,24.261,M,0.8,0000*58
$GNGGA,090847.00,5948.7670874,N,01739.2891843,E,4,12,0.49,18.549,M,24.261,M,1.0,0000*5A
$GNGGA,090847.20,5948.7670872,N,01739.2891840,E,4,12,0.49,18.550,M,24.261,M,1.2,0000*57
$GNGGA,090847.40,5948.7670877,N,01739.2891842,E,4,12,0.49,18.553,M,24.261,M,0.4,0000*52
$GNGGA,090847.60,5948.7670867,N,01739.2891833,E,4,12,0.49,18.554,M,24.261,M,0.6,0000*52
$GNGGA,090847.80,5948.7670867,N,01739.2891833,E,4,12,0.49,18.554,M,24.261,M,0.8,0000*52
$GNGGA,090848.00,5948.7670865,N,01739.2891823,E,4,12,0.49,18.556,M,24.261,M,1.0,0000*5D
$GNGGA,090848.20,5948.7670875,N,01739.2891846,E,4,12,0.49,18.554,M,24.261,M,0.2,0000*5C
$GNGGA,090848.40,5948.7670874,N,01739.2891846,E,4,12,0.49,18.551,M,24.261,M,0.4,0000*58
$GNGGA,090848.60,5948.7670874,N,01739.2891849,E,4,12,0.49,18.555,M,24.261,M,0.6,0000*53
$GNGGA,090848.80,5948.7670870,N,01739.2891841,E,4,12,0.49,18.556,M,24.261,M,0.8,0000*5C
$GNGGA,090849.00,5948.7670878,N,01739.2891848,E,4,12,0.49,18.554,M,24.261,M,1.0,0000*5F
$GNGGA,090849.20,5948.7670874,N,01739.2891818,E,4,12,0.49,18.553,M,24.261,M,0.2,0000*50
$GNGGA,090849.40,5948.7670875,N,01739.2891818,E,4,12,0.49,18.553,M,24.261,M,0.4,0000*51
$GNGGA,090849.60,5948.7670883,N,01739.2891828,E,4,12,0.49,18.556,M,24.261,M,0.6,0000*5E
$GNGGA,090849.80,5948.7670884,N,01739.2891835,E,4,12,0.49,18.555,M,24.261,M,0.8,0000*56
$GNGGA,090850.00,5948.7670885,N,01739.2891833,E,4,12,0.49,18.554,M,24.261,M,1.0,0000*59
$GNGGA,090850.20,5948.7670881,N,01739.2891832,E,4,12,0.49,18.556,M,24.261,M,1.2,0000*5E
$GNGGA,090850.40,5948.7670872,N,01739.2891834,E,4,12,0.49,18.553,M,24.261,M,0.4,0000*50
$GNGGA,090850.60,5948.7670873,N,01739.2891841,E,4,12,0.49,18.551,M,24.261,M,0.6,0000*51
$GNGGA,090850.80,5948.7670871,N,01739.2891843,E,4,12,0.49,18.551,M,24.261,M,0.8,0000*51
$GNGGA,090851.00,5948.7670875,N,01739.2891832,E,4,12,0.49,18.553,M,24.261,M,1.0,0000*51
$GNGGA,090851.20,5948.7670876,N,01739.2891847,E,4,12,0.49,18.551,M,24.261,M,0.2,0000*53
$GNGGA,090851.40,5948.7670882,N,01739.2891854,E,4,12,0.49,18.548,M,24.261,M,0.4,0000*52
$GNGGA,090851.60,5948.7670872,N,01739.2891848,E,4,12,0.49,18.546,M,24.261,M,0.6,0000*5E
$GNGGA,090851.80,5948.7670875,N,01739.2891862,E,4,12,0.49,18.547,M,24.261,M,0.8,0000*50
$GNGGA,090852.00,5948.7670869,N,01739.2891852,E,4,12,0.49,18.543,M,24.261,M,1.0,0000*58
$GNGGA,090852.20,5948.7670877,N,01739.2891829,E,4,12,0.49,18.552,M,24.261,M,0.2,0000*5A
$GNGGA,090852.40,5948.7670874,N,01739.2891834,E,4,12,0.49,18.553,M,24.261,M,0.4,0000*54
$GNGGA,090852.60,5948.7670877,N,01739.2891839,E,4,12,0.49,18.551,M,24.261,M,0.6,0000*58
$GNGGA,090852.80,5948.7670877,N,01739.2891842,E,4,12,0.49,18.551,M,24.261,M,0.8,0000*54
$GNGGA,090853.00,5948.7670870,N,01739.2891852,E,4,12,0.49,18.548,M,24.261,M,1.0,0000*5A
$GNGGA,090853.20,5948.7670881,N,01739.2891818,E,4,12,0.49,18.555,M,24.261,M,0.2,0000*57
$GNGGA,090853.40,5948.7670886,N,01739.2891830,E,4,12,0.49,18.557,M,24.261,M,0.4,0000*58
$GNGGA,090853.60,5948.7670878,N,01739.2891834,E,4,12,0.49,18.555,M,24.261,M,0.6,0000*5F
$GNGGA,090853.80,5948.7670878,N,01739.2891825,E,4,12,0.49,18.554,M,24.261,M,0.8,0000*5E
$GNGGA,090854.00,5948.7670875,N,01739.2891827,E,4,12,0.49,18.555,M,24.261,M,1.0,0000*56
$GNGGA,090854.20,5948.7670878,N,01739.2891850,E,4,12,0.49,18.555,M,24.261,M,0.2,0000*5A
$GNGGA,090854.40,5948.7670881,N,01739.2891839,E,4,12,0.49,18.556,M,24.261,M,0.4,0000*50
$GNGGA,090854.60,5948.7670878,N,01739.2891837,E,4,12,0.49,18.557,M,24.261,M,0.6,0000*59
$GNGGA,090854.80,5948.7670880,N,01739.2891846,E,4,12,0.49,18.557,M,24.261,M,0.8,0000*58
$GNGGA,090855.00,5948.7670886,N,01739.2891840,E,4,12,0.49,18.560,M,24.261,M,1.0,0000*5C
$GNGGA,090855.20,5948.7670882,N,01739.2891854,E,4,12,0.49,18.560,M,24.261,M,1.2,0000*5D
$GNGGA,090855.40,5948.7670886,N,01739.2891845,E,4,12,0.49,18.555,M,24.261,M,0.4,0000*5E
$GNGGA,090855.60,5948.7670885,N,01739.2891848,E,4,12,0.49,18.554,M,24.261,M,0.6,0000*51
$GNGGA,090855.80,5948.7670885,N,01739.2891853,E,4,12,0.49,18.554,M,24.261,M,0.8,0000*5B
$GNGGA,090856.00,5948.7670882,N,01739.2891848,E,4,12,0.49,18.555,M,24.261,M,1.0,0000*55
$GNGGA,090856.20,5948.7670884,N,01739.2891845,E,4,12,0.49,18.553,M,24.261,M,0.2,0000*59
$GNGGA,090856.40,5948.7670886,N,01739.2891854,E,4,12,0.49,18.553,M,24.261,M,0.4,0000*5B
$GNGGA,090856.60,5948.7670883,N,01739.2891846,E,4,12,0.49,18.555,M,24.261,M,0.6,0000*5B
$GNGGA,090856.80,5948.7670880,N,01739.2891850,E,4,12,0.49,18.554,M,24.261,M,0.8,0000*5E
$GNGGA,090857.00,5948.7670880,N,01739.2891846,E,4,12,0.49,18.554,M,24.261,M,1.0,0000*59
$GNGGA,090857.20,5948.7670889,N,01739.2891843,E,4,12,0.49,18.554,M,24.261,M,0.2,0000*54
$GNGGA,090857.40,5948.7670885,N,01739.2891843,E,4,12,0.49,18.553,M,24.261,M,0.4,0000*5F
$GNGGA,090857.60,5948.7670885,N,01739.2891832,E,4,12,0.49,18.553,M,24.261,M,0.6,0000*59
$GNGGA,090857.80,5948.7670888,N,01739.2891848,E,4,12,0.49,18.552,M,24.261,M,0.8,0000*58
$GNGGA,090858.00,5948.7670883,N,01739.2891846,E,4,12,0.49,18.548,M,24.261,M,1.0,0000*58
$GNGGA,090858.20,5948.7670888,N,01739.2891842,E,4,12,0.49,18.552,M,24.261,M,0.2,0000*5D
$GNGGA,090858.40,5948.7670891,N,01739.2891843,E,4,12,0.49,18.550,M,24.261,M,0.4,0000*56
$GNGGA,090858.60,5948.7670891,N,01739.2891855,E,4,12,0.49,18.550,M,24.261,M,0.6,0000*51
$GNGGA,090858.80,5948.7670892,N,01739.2891852,E,4,12,0.49,18.549,M,24.261,M,0.8,0000*5D
$GNGGA,090859.00,5948.7670893,N,01739.2891855,E,4,12,0.49,18.548,M,24.261,M,1.0,0000*5A
$GNGGA,090859.20,5948.7670885,N,01739.2891843,E,4,12,0.49,18.553,M,24.261,M,0.2,0000*51
$GNGGA,090859.40,5948.7670886,N,01739.2891841,E,4,12,0.49,18.552,M,24.261,M,0.4,0000*51
$GNGGA,090859.60,5948.7670886,N,01739.2891851,E,4,12,0.49,18.550,M,24.261,M,0.6,0000*52
$GNGGA,090859.80,5948.7670892,N,01739.2891854,E,4,12,0.49,18.550,M,24.261,M,0.8,0000*52
$GNGGA,090900.00,5948.7670887,N,01739.2891844,E,4,12,0.49,18.548,M,24.261,M,1.0,0000*52
$GNGGA,090900.20,5948.7670885,N,01739.2891838,E,4,12,0.49,18.553,M,24.261,M,0.2,0000*50
$GNGGA,090900.40,5948.7670888,N,01739.2891841,E,4,12,0.49,18.551,M,24.261,M,0.4,0000*51
$GNGGA,090900.60,5948.7670884,N,01739.2891839,E,4,12,0.49,18.551,M,24.261,M,0.6,0000*52
$GNGGA,090900.80,5948.7670886,N,01739.2891844,E,4,12,0.49,18.551,M,24.261,M,0.8,0000*5A
$GNGGA,090901.00,5948.7670882,N,01739.2891835,E,4,12,0.49,18.551,M,24.261,M,1.0,0000*58
$GNGGA,090901.20,5948.7670886,N,01739.2891838,E,4,12,0.49,18.552,M,24.261,M,1.2,0000*52
$GNGGA,090901.40,5948.7670886,N,01739.2891849,E,4,12,0.49,18.552,M,24.261,M,1.4,0000*54
$GNGGA,090901.60,5948.7670886,N,01739.2891847,E,4,12,0.49,18.549,M,24.261,M,0.6,0000*51
$GNGGA,090901.80,5948.7670888,N,01739.2891852,E,4,12,0.49,18.550,M,24.261,M,0.8,0000*53
$GNGGA,090902.00,5948.7670886,N,01739.2891844,E,4,12,0.49,18.552,M,24.261,M,1.0,0000*5A
$GNGGA,090902.20,5948.7670885,N,01739.2891822,E,4,12,0.49,18.552,M,24.261,M,0.2,0000*58
$GNGGA,090902.40,5948.7670877,N,01739.2891836,E,4,12,0.49,18.551,M,24.261,M,0.4,0000*53
$GNGGA,090902.60,5948.7670882,N,01739.2891832,E,4,12,0.49,18.552,M,24.261,M,0.6,0000*5E
$GNGGA,090902.80,5948.7670885,N,01739.2891845,E,4,12,0.49,18.553,M,24.261,M,0.8,0000*58
$GNGGA,090903.00,5948.7670880,N,01739.2891839,E,4,12,0.49,18.552,M,24.261,M,1.0,0000*57
$GNGGA,090903.20,5948.7670875,N,01739.2891830,E,4,12,0.49,18.553,M,24.261,M,1.2,0000*55
$GNGGA,090903.40,5948.7670881,N,01739.2891837,E,4,12,0.49,18.551,M,24.261,M,0.4,0000*5A
$GNGGA,090903.60,5948.7670880,N,01739.2891837,E,4,12,0.49,18.551,M,24.261,M,0.6,0000*5B
$GNGGA,090903.80,5948.7670881,N,01739.2891853,E,4,12,0.49,18.553,M,24.261,M,0.8,0000*5A
$GNGGA,090904.00,5948.7670880,N,01739.2891851,E,4,12,0.49,18.554,M,24.261,M,1.0,0000*58
$GNGGA,090904.20,5948.7670883,N,01739.2891829,E,4,12,0.49,18.550,M,24.261,M,0.2,0000*51
$GNGGA,090904.40,5948.7670875,N,01739.2891830,E,4,12,0.49,18.553,M,24.261,M,0.4,0000*53
$GNGGA,090904.60,5948.7670881,N,01739.2891831,E,4,12,0.49,18.552,M,24.261,M,0.6,0000*58
$GNGGA,090904.80,5948.7670877,N,01739.2891829,E,4,12,0.49,18.552,M,24.261,M,0.8,0000*58
$GNGGA,090905.00,5948.7670877,N,01739.2891834,E,4,12,0.49,18.553,M,24.261,M,1.0,0000*55
$GNGGA,090905.20,5948.7670884,N,01739.2891851,E,4,12,0.49,18.555,M,24.261,M,1.2,0000*5C
$GNGGA,090905.40,5948.7670888,N,01739.2891833,E,4,12,0.49,18.553,M,24.261,M,0.4,0000*53
$GNGGA,090905.60,5948.7670890,N,01739.2891838,E,4,12,0.49,18.550,M,24.261,M,0.6,0000*52
$GNGGA,090905.80,5948.7670884,N,01739.2891842,E,4,12,0.49,18.552,M,24.261,M,0.8,0000*58
$GNGGA,090906.00,5948.7670886,N,01739.2891844,E,4,12,0.49,18.550,M,24.261,M,1.0,0000*5C
$GNGGA,090906.20,5948.7670883,N,01739.2891842,E,4,12,0.49,18.549,M,24.261,M,0.2,0000*56
$GNGGA,090906.40,5948.7670888,N,01739.2891839,E,4,12,0.49,18.550,M,24.261,M,0.4,0000*59
$GNGGA,090906.60,5948.7670888,N,01739.2891838,E,4,12,0.49,18.552,M,24.261,M,0.6,0000*5A
$GNGGA,090906.80,5948.7670885,N,01739.2891847,E,4,12,0.49,18.549,M,24.261,M,0.8,0000*55
$GNGGA,090907.00,5948.7670886,N,01739.2891835,E,4,12,0.49,18.547,M,24.261,M,1.0,0000*5D
$GNGGA,090907.20,5948.7670886,N,01739.2891850,E,4,12,0.49,18.546,M,24.261,M,1.2,0000*5F
$GNGGA,090907.40,5948.7670885,N,01739.2891838,E,4,12,0.49,18.550,M,24.261,M,0.4,0000*54
$GNGGA,090907.60,5948.7670881,N,01739.2891837,E,4,12,0.49,18.550,M,24.261,M,0.6,0000*5F
$GNGGA,090907.80,5948.7670883,N,01739.2891846,E,4,12,0.49,18.550,M,24.261,M,0.8,0000*5B
$GNGGA,090908.00,5948.7670887,N,01739.2891851,E,4,12,0.49,18.548,M,24.261,M,1.0,0000*5E
$GNGGA,090908.20,5948.7670894,N,01739.2891834,E,4,12,0.49,18.549,M,24.261,M,0.2,0000*5F
$GNGGA,090908.40,5948.7670898,N,01739.2891839,E,4,12,0.49,18.551,M,24.261,M,0.4,0000*57
$GNGGA,090908.60,5948.7670892,N,01739.2891834,E,4,12,0.49,18.552,M,24.261,M,0.6,0000*53
$GNGGA,090908.80,5948.7670890,N,01739.2891843,E,4,12,0.49,18.552,M,24.261,M,0.8,0000*51
$GNGGA,090909.00,5948.7670893,N,01739.2891844,E,4,12,0.49,18.554,M,24.261,M,1.0,0000*53
$GNGGA,090909.20,5948.7670890,N,01739.2891842,E,4,12,0.49,18.552,M,24.261,M,0.2,0000*51
$GNGGA,090909.40,5948.7670893,N,01739.2891840,E,4,12,0.49,18.553,M,24.261,M,0.4,0000*51
$GNGGA,090909.60,5948.7670892,N,01739.2891853,E,4,12,0.49,18.553,M,24.261,M,0.6,0000*52
$GNGGA,090909.80,5948.7670892,N,01739.2891841,E,4,12,0.49,18.555,M,24.261,M,0.8,0000*57
$GNGGA,090910.00,5948.7670889,N,01739.2891848,E,4,12,0.49,18.555,M,24.261,M,1.0,0000*5D
$GNGGA,090910.20,5948.7670895,N,01739.2891854,E,4,12,0.49,18.555,M,24.261,M,1.2,0000*5D
$GNGGA,090910.40,5948.7670892,N,01739.2891853,E,4,12,0.49,18.556,M,24.261,M,1.4,0000*5E
$GNGGA,090910.60,5948.7670887,N,01739.2891840,E,4,12,0.49,18.555,M,24.261,M,0.6,0000*5A
$GNGGA,090910.80,5948.7670888,N,01739.2891834,E,4,12,0.49,18.557,M,24.261,M,0.8,0000*54
$GNGGA,090911.00,5948.7670891,N,01739.2891841,E,4,12,0.49,18.558,M,24.261,M,1.0,0000*51
$GNGGA,090911.20,5948.7670891,N,01739.2891839,E,4,12,0.49,18.552,M,24.261,M,0.2,0000*55
$GNGGA,090911.40,5948.7670891,N,01739.2891821,E,4,12,0.49,18.554,M,24.261,M,0.4,0000*5A
$GNGGA,090911.60,5948.7670895,N,01739.2891832,E,4,12,0.49,18.555,M,24.261,M,0.6,0000*5D
$GNGGA,090911.80,5948.7670887,N,01739.2891827,E,4,12,0.49,18.555,M,24.261,M,0.8,0000*5A
$GNGGA,090912.00,5948.7670891,N,01739.2891838,E,4,12,0.49,18.555,M,24.261,M,1.0,0000*51
$GNGGA,090912.20,5948.7670892,N,01739.2891835,E,4,12,0.49,18.558,M,24.261,M,1.2,0000*52
$GNGGA,090912.40,5948.7670891,N,01739.2891813,E,4,12,0.49,18.554,M,24.261,M,0.4,0000*58
$GNGGA,090912.60,5948.7670890,N,01739.2891817,E,4,12,0.49,18.555,M,24.261,M,0.6,0000*5C
$GNGGA,090912.80,5948.7670888,N,01739.2891819,E,4,12,0.49,18.555,M,24.261,M,0.8,0000*5B
$GNGGA,090913.00,5948.7670889,N,01739.2891806,E,4,12,0.49,18.555,M,24.261,M,1.0,0000*54
$GNGGA,090913.20,5948.7670894,N,01739.2891837,E,4,12,0.49,18.550,M,24.261,M,0.2,0000*5E
$GNGGA,090913.40,5948.7670890,N,01739.2891836,E,4,12,0.49,18.549,M,24.261,M,0.4,0000*53
$GNGGA,090913.60,5948.7670890,N,01739.2891834,E,4,12,0.49,18.551,M,24.261,M,0.6,0000*58
$GNGGA,090913.80,5948.7670890,N,01739.2891839,E,4,12,0.49,18.548,M,24.261,M,0.8,0000*5D
$GNGGA,090914.00,5948.7670890,N,01739.2891837,E,4,12,0.49,18.547,M,24.261,M,1.0,0000*5A
$GNGGA,090914.20,5948.7670893,N,01739.2891835,E,4,12,0.49,18.552,M,24.261,M,0.2,0000*5E
$GNGGA,090914.40,5948.7670891,N,01739.2891843,E,4,12,0.49,18.551,M,24.261,M,0.4,0000*5E
$GNGGA,090914.60,5948.7670894,N,01739.2891842,E,4,12,0.49,18.552,M,24.261,M,0.6,0000*59
$GNGGA,090914.80,5948.7670891,N,01739.2891855,E,4,12,0.49,18.550,M,24.261,M,0.8,0000*58
$GNGGA,090915.00,5948.7670893,N,01739.2891840,E,4,12,0.49,18.551,M,24.261,M,1.0,0000*5F
$GNGGA,090915.20,5948.7670893,N,01739.2891852,E,4,12,0.49,18.553,M,24.261,M,1.2,0000*5E
$GNGGA,090915.40,5948.7670892,N,01739.2891842,E,4,12,0.49,18.551,M,24.261,M,0.4,0000*5D
$GNGGA,090915.60,5948.7670894,N,01739.2891849,E,4,12,0.49,18.550,M,24.261,M,0.6,0000*51
$GNGGA,090915.80,5948.7670889,N,01739.2891847,E,4,12,0.49,18.549,M,24.261,M,0.8,0000*5B
$GNGGA,090916.00,5948.7670892,N,01739.2891850,E,4,12,0.49,18.549,M,24.261,M,1.0,0000*55
$GNGGA,090916.20,5948.7670887,N,01739.2891841,E,4,12,0.49,18.552,M,24.261,M,0.2,0000*5A
$GNGGA,090916.40,5948.7670885,N,01739.2891841,E,4,12,0.49,18.550,M,24.261,M,0.4,0000*5A
$GNGGA,090916.60,5948.7670887,N,01739.2891841,E,4,12,0.49,18.552,M,24.261,M,0.6,0000*5A
$GNGGA,090916.80,5948.7670886,N,01739.2891841,E,4,12,0.49,18.551,M,24.261,M,0.8,0000*58
$GNGGA,090917.00,5948.7670884,N,01739.2891845,E,4,12,0.49,18.550,M,24.261,M,1.0,0000*5F
$GNGGA,090917.20,5948.7670880,N,01739.2891843,E,4,12,0.49,18.549,M,24.261,M,1.2,0000*55
$GNGGA,090917.40,5948.7670885,N,01739.2891837,E,4,12,0.49,18.550,M,24.261,M,1.4,0000*5B
$GNGGA,090917.60,5948.7670896,N,01739.2891837,E,4,12,0.49,18.554,M,24.261,M,0.6,0000*5C
$GNGGA,090917.80,5948.7670891,N,01739.2891834,E,4,12,0.49,18.554,M,24.261,M,0.8,0000*58
$GNGGA,090918.00,5948.7670892,N,01739.2891837,E,4,12,0.49,18.554,M,24.261,M,1.0,0000*56
$GNGGA,090918.20,5948.7670883,N,01739.2891825,E,4,12,0.49,18.554,M,24.261,M,0.2,0000*54
$GNGGA,090918.40,5948.7670887,N,01739.2891829,E,4,12,0.49,18.552,M,24.261,M,0.4,0000*5A
$GNGGA,090918.60,5948.7670889,N,01739.2891833,E,4,12,0.49,18.552,M,24.261,M,0.6,0000*5F
$GNGGA,090918.80,5948.7670889,N,01739.2891826,E,4,12,0.49,18.554,M,24.261,M,0.8,0000*5D
$GNGGA,090919.00,5948.7670882,N,01739.2891840,E,4,12,0.49,18.550,M,24.261,M,1.0,0000*52
$GNGGA,090919.20,5948.7670892,N,01739.2891834,E,4,12,0.49,18.551,M,24.261,M,0.2,0000*50
$GNGGA,090919.40,5948.7670887,N,01739.2891830,E,4,12,0.49,18.551,M,24.261,M,0.4,0000*50
$GNGGA,090919.60,5948.7670885,N,01739.2891821,E,4,12,0.49,18.550,M,24.261,M,0.6,0000*53
$GNGGA,090919.80,5948.7670885,N,01739.2891824,E,4,12,0.49,18.549,M,24.261,M,0.8,0000*5E
$GNGGA,090920.00,5948.7670884,N,01739.2891833,E,4,12,0.49,18.552,M,24.261,M,1.0,0000*58
$GNGGA,090920.20,5948.7670886,N,01739.2891836,E,4,12,0.49,18.551,M,24.261,M,1.2,0000*5C
$GNGGA,090920.40,5948.7670887,N,01739.2891817,E,4,12,0.49,18.553,M,24.261,M,0.4,0000*5D
$GNGGA,090920.60,5948.7670889,N,01739.2891824,E,4,12,0.49,18.552,M,24.261,M,0.6,0000*52
$GNGGA,090920.80,5948.7670883,N,01739.2891828,E,4,12,0.49,18.552,M,24.261,M,0.8,0000*54
$GNGGA,090921.00,5948.7670884,N,01739.2891833,E,4,12,0.49,18.553,M,24.261,M,1.0,0000*58
$GNGGA,090921.20,5948.7670884,N,01739.2891834,E,4,12,0.49,18.554,M,24.261,M,1.2,0000*58
$GNGGA,090921.40,5948.7670885,N,01739.2891825,E,4,12,0.49,18.550,M,24.261,M,0.4,0000*5C
$GNGGA,090921.60,5948.7670886,N,01739.2891827,E,4,12,0.49,18.553,M,24.261,M,0.6,0000*5E
$GNGGA,090921.80,5948.7670881,N,01739.2891815,E,4,12,0.49,18.551,M,24.261,M,0.8,0000*5A
$GNGGA,090922.00,5948.7670883,N,01739.2891827,E,4,12,0.49,18.555,M,24.261,M,1.0,0000*5F
$GNGGA,090922.20,5948.7670881,N,01739.2891828,E,4,12,0.49,18.555,M,24.261,M,1.2,0000*52
$GNGGA,090922.40,5948.7670882,N,01739.2891820,E,4,12,0.49,18.551,M,24.261,M,0.4,0000*5C
$GNGGA,090922.60,5948.7670875,N,01739.2891823,E,4,12,0.49,18.549,M,24.261,M,0.6,0000*5E
$GNGGA,090922.80,5948.7670877,N,01739.2891843,E,4,12,0.49,18.550,M,24.261,M,0.8,0000*52
$GNGGA,090923.00,5948.7670881,N,01739.2891829,E,4,12,0.49,18.550,M,24.261,M,1.0,0000*57
$GNGGA,090923.20,5948.7670878,N,01739.2891834,E,4,12,0.49,18.550,M,24.261,M,1.2,0000*5D
$GNGGA,090923.40,5948.7670891,N,01739.2891827,E,4,12,0.49,18.552,M,24.261,M,0.4,0000*5B
$GNGGA,090923.60,5948.7670889,N,01739.2891827,E,4,12,0.49,18.550,M,24.261,M,0.6,0000*50
$GNGGA,090923.80,5948.7670889,N,01739.2891818,E,4,12,0.49,18.549,M,24.261,M,0.8,0000*54
$GNGGA,090924.00,5948.7670888,N,01739.2891823,E,4,12,0.49,18.548,M,24.261,M,1.0,0000*5A
$GNGGA,090924.20,5948.7670879,N,01739.2891824,E,4,12,0.49,18.549,M,24.261,M,0.2,0000*53
$GNGGA,090924.40,5948.7670881,N,01739.2891818,E,4,12,0.49,18.548,M,24.261,M,0.4,0000*5A
$GNGGA,090924.60,5948.7670880,N,01739.2891827,E,4,12,0.49,18.546,M,24.261,M,0.6,0000*59
$GNGGA,090924.80,5948.7670877,N,01739.2891831,E,4,12,0.49,18.545,M,24.261,M,0.8,0000*55
$GNGGA,090925.00,5948.7670885,N,01739.2891840,E,4,12,0.49,18.543,M,24.261,M,1.0,0000*58
$GNGGA,090925.20,5948.7670886,N,01739.2891841,E,4,12,0.49,18.542,M,24.261,M,1.2,0000*5B
$GNGGA,090925.40,5948.7670882,N,01739.2891844,E,4,12,0.49,18.541,M,24.261,M,1.4,0000*59
$GNGGA,090925.60,5948.7670886,N,01739.2891831,E,4,12,0.49,18.548,M,24.261,M,0.6,0000*57
$GNGGA,090925.80,5948.7670888,N,01739.2891838,E,4,12,0.49,18.547,M,24.261,M,0.8,0000*5F
$GNGGA,090926.00,5948.7670888,N,01739.2891835,E,4,12,0.49,18.548,M,24.261,M,1.0,0000*5F
$GNGGA,090926.20,5948.7670890,N,01739.2891835,E,4,12,0.49,18.549,M,24.261,M,1.2,0000*57
$GNGGA,090926.40,5948.7670878,N,01739.2891810,E,4,12,0.49,18.551,M,24.261,M,0.4,0000*5E
$GNGGA,090926.60,5948.7670877,N,01739.2891818,E,4,12,0.49,18.551,M,24.261,M,0.6,0000*59
$GNGGA,090926.80,5948.7670876,N,01739.2891819,E,4,12,0.49,18.553,M,24.261,M,0.8,0000*5B
$GNGGA,090927.00,5948.7670872,N,01739.2891818,E,4,12,0.49,18.553,M,24.261,M,1.0,0000*5E
$GNGGA,090927.20,5948.7670868,N,01739.2891825,E,4,12,0.49,18.555,M,24.261,M,1.2,0000*5D
$GNGGA,090927.40,5948.7670871,N,01739.2891829,E,4,12,0.49,18.554,M,24.261,M,1.4,0000*58
$GNGGA,090927.60,5948.7670882,N,01739.2891813,E,4,12,0.49,18.556,M,24.261,M,0.6,0000*5E
$GNGGA,090927.80,5948.7670880,N,01739.2891825,E,4,12,0.49,18.559,M,24.261,M,0.8,0000*56
$GNGGA,090928.00,5948.7670877,N,01739.2891823,E,4,12,0.49,18.559,M,24.261,M,1.0,0000*56
$GNGGA,090928.20,5948.7670882,N,01739.2891825,E,4,12,0.49,18.553,M,24.261,M,0.2,0000*51
$GNGGA,090928.40,5948.7670882,N,01739.2891830,E,4,12,0.49,18.553,M,24.261,M,0.4,0000*55
$GNGGA,090928.60,5948.7670875,N,01739.2891821,E,4,12,0.49,18.554,M,24.261,M,0.6,0000*5A
$GNGGA,090928.80,5948.7670881,N,01739.2891827,E,4,12,0.49,18.556,M,24.261,M,0.8,0000*55
